{
"type": "FeatureCollection",
"name": "Daily Priority Markets",
"crs": { "type": "name", "properties": { "name": "urn:ogc:def:crs:OGC:1.3:CRS84" } },
"features": [
{ "type": "Feature", "properties": { "Name": "Bungoma town", "description": "County: Bungoma<br>Point X: 34.5666644<br>Point Y: 0.5666644<br>Market Type: Priority", "County": "Bungoma", "Point_X": "34.5666644", "Point_Y": "0.5666644", "Market_Type": "Priority" }, "geometry": { "type": "Point", "coordinates": [ 34.5666644, 0.5666644 ] } },
{ "type": "Feature", "properties": { "Name": "Eldoret Main", "description": "County: Uasin Gishu<br>Point X: 35.27287555<br>Point Y: 0.516628487<br>Market Type: Priority", "County": "Uasin Gishu", "Point_X": "35.27287555", "Point_Y": "0.516628487", "Market_Type": "Priority" }, "geometry": { "type": "Point", "coordinates": [ 35.27287555, 0.516628487 ] } },
{ "type": "Feature", "properties": { "Name": "Meru Gakoromone", "description": "County: Meru<br>Point X: 37.64564711<br>Point Y: 0.051439913<br>Market Type: Priority", "County": "Meru", "Point_X": "37.64564711", "Point_Y": "0.051439913", "Market_Type": "Priority" }, "geometry": { "type": "Point", "coordinates": [ 37.64564711, 0.051439913 ] } },
{ "type": "Feature", "properties": { "Name": "Garissa  Market", "description": "County: Garissa<br>Point X: 39.65991433<br>Point Y: -0.44090782<br>Market Type: Priority", "County": "Garissa", "Point_X": "39.65991433", "Point_Y": "-0.44090782", "Market_Type": "Priority" }, "geometry": { "type": "Point", "coordinates": [ 39.65991433, -0.44090782 ] } },
{ "type": "Feature", "properties": { "Name": "Isiolo", "description": "County: Isiolo<br>Point X: 36.721861<br>Point Y: -1.309345<br>Market Type: Priority", "County": "Isiolo", "Point_X": "36.721861", "Point_Y": "-1.309345", "Market_Type": "Priority" }, "geometry": { "type": "Point", "coordinates": [ 36.721861, -1.309345 ] } },
{ "type": "Feature", "properties": { "Name": "Kajiado", "description": "County: Kajiado<br>Point X: 36.788943<br>Point Y: -1.84429<br>Market Type: Priority", "County": "Kajiado", "Point_X": "36.788943", "Point_Y": "-1.84429", "Market_Type": "Priority" }, "geometry": { "type": "Point", "coordinates": [ 36.788943, -1.84429 ] } },
{ "type": "Feature", "properties": { "Name": "Kakamega Town", "description": "County: Kakamega<br>Point X: 34.75522438611092<br>Point Y: 0.28675277575029046<br>Market Type: Priority", "County": "Kakamega", "Point_X": "34.75522438611092", "Point_Y": "0.28675277575029046", "Market_Type": "Priority" }, "geometry": { "type": "Point", "coordinates": [ 34.755224386110903, 0.28675277575029 ] } },
{ "type": "Feature", "properties": { "Name": "KisumuÂ  Market", "description": "County: Kisumu<br>Point X: 34.77443891<br>Point Y: -0.084305842<br>Market Type: Priority", "County": "Kisumu", "Point_X": "34.77443891", "Point_Y": "-0.084305842", "Market_Type": "Priority" }, "geometry": { "type": "Point", "coordinates": [ 34.77443891, -0.084305842 ] } },
{ "type": "Feature", "properties": { "Name": "Kitale Municipality Market", "description": "County: Trans-Nzoia<br>Point X: 35.00123318<br>Point Y: 1.019501872<br>Market Type: Priority", "County": "Trans-Nzoia", "Point_X": "35.00123318", "Point_Y": "1.019501872", "Market_Type": "Priority" }, "geometry": { "type": "Point", "coordinates": [ 35.00123318, 1.019501872 ] } },
{ "type": "Feature", "properties": { "Name": "Kitui", "description": "County: Kitui<br>Point X: 36.721861<br>Point Y: -1.309345<br>Market Type: Priority", "County": "Kitui", "Point_X": "36.721861", "Point_Y": "-1.309345", "Market_Type": "Priority" }, "geometry": { "type": "Point", "coordinates": [ 36.721861, -1.309345 ] } },
{ "type": "Feature", "properties": { "Name": "Mombasa Kongowea", "description": "County: Mombasa<br>Point X: 39.71666667<br>Point Y: -3.9666667<br>Market Type: Priority", "County": "Mombasa", "Point_X": "39.71666667", "Point_Y": "-3.9666667", "Market_Type": "Priority" }, "geometry": { "type": "Point", "coordinates": [ 39.71666667, -3.9666667 ] } },
{ "type": "Feature", "properties": { "Name": "Machakos Main Market", "description": "County: Machakos<br>Point X: 37.2726321<br>Point Y: -1.5213897<br>Market Type: Priority", "County": "Machakos", "Point_X": "37.2726321", "Point_Y": "-1.5213897", "Market_Type": "Priority" }, "geometry": { "type": "Point", "coordinates": [ 37.2726321, -1.5213897 ] } },
{ "type": "Feature", "properties": { "Name": "Makueni ", "description": "County: Makueni<br>Point X: 37.62677889<br>Point Y: -1.788656783<br>Market Type: Priority", "County": "Makueni", "Point_X": "37.62677889", "Point_Y": "-1.788656783", "Market_Type": "Priority" }, "geometry": { "type": "Point", "coordinates": [ 37.62677889, -1.788656783 ] } },
{ "type": "Feature", "properties": { "Name": "Malindi Old Market", "description": "County: Kilifi<br>Point X: 40.1203583<br>Point Y: -3.2184926<br>Market Type: Priority", "County": "Kilifi", "Point_X": "40.1203583", "Point_Y": "-3.2184926", "Market_Type": "Priority" }, "geometry": { "type": "Point", "coordinates": [ 40.1203583, -3.2184926 ] } },
{ "type": "Feature", "properties": { "Name": "Mandera Market", "description": "County: Mandera<br>Point X: 41.85709<br>Point Y: 3.93772<br>Market Type: Priority", "County": "Mandera", "Point_X": "41.85709", "Point_Y": "3.93772", "Market_Type": "Priority" }, "geometry": { "type": "Point", "coordinates": [ 41.85709, 3.93772 ] } },
{ "type": "Feature", "properties": { "Name": "Nakuru Top Market", "description": "County: Nakuru<br>Point X: 36.0762173<br>Point Y: -0.2851215<br>Market Type: Priority", "County": "Nakuru", "Point_X": "36.0762173", "Point_Y": "-0.2851215", "Market_Type": "Priority" }, "geometry": { "type": "Point", "coordinates": [ 36.0762173, -0.2851215 ] } },
{ "type": "Feature", "properties": { "Name": "Nyeri open air", "description": "County: Nyeri<br>Point X: 36.95594668<br>Point Y: -0.426596036<br>Market Type: Priority", "County": "Nyeri", "Point_X": "36.95594668", "Point_Y": "-0.426596036", "Market_Type": "Priority" }, "geometry": { "type": "Point", "coordinates": [ 36.95594668, -0.426596036 ] } },
{ "type": "Feature", "properties": { "Name": "Nairobi Wakulima Market", "description": "County: Nairobi<br>Point X: 36.721861<br>Point Y: -1.309345<br>Market Type: Priority", "County": "Nairobi", "Point_X": "36.721861", "Point_Y": "-1.309345", "Market_Type": "Priority" }, "geometry": { "type": "Point", "coordinates": [ 36.721861, -1.309345 ] } }
]
}
